city_id,City,Country,City ID,Cloudiness,Humidity,Longitude,Latitude,Max Temp,Wind Speed
0,farah,AF,1142263,0,23,62.5,32.5,74.05,2.37
1,tagab,AF,1123424,40,52,69.65,34.85,75.2,0.51
2,yellowknife,CA,6185377,90,88,-114.35,62.46,64.4,3.36
3,namibe,AO,3347019,1,89,12.15,-15.2,62.01,3.18
4,ushuaia,AR,3833367,75,74,-68.3,-54.8,37.4,4.52
5,bluff,NZ,2206939,95,88,168.33,-46.6,48.0,5.99
6,sibolga,ID,1213855,74,63,98.78,1.74,83.43,1.99
7,starkville,US,4447161,1,83,-88.82,33.45,81.0,4.32
8,tiksi,RU,2015306,99,86,128.87,71.69,48.22,7.18
9,najran,SA,103630,100,44,44.13,17.49,80.6,9.17
10,cherskiy,RU,2126199,100,90,161.3,68.75,48.72,8.63
11,marawi,PH,1701054,44,77,124.29,8.0,82.0,5.99
12,saskylakh,RU,2017155,100,87,114.08,71.92,58.33,10.67
13,bera,BD,1209562,100,79,89.62,24.08,84.31,7.27
14,sistranda,NO,3139597,75,100,8.83,63.73,57.2,5.82
15,vaini,TO,4032243,20,64,-175.2,-21.2,75.2,6.93
16,iskateley,RU,866062,99,92,53.15,67.68,50.72,7.87
17,jamestown,US,5122534,1,77,-79.24,42.1,66.99,6.93
18,catuday,PH,1717787,78,76,119.81,16.29,82.8,11.25
19,la libertad,EC,3655131,40,88,-80.9,-2.23,68.0,8.05
20,hilo,US,5855927,90,83,-155.09,19.73,78.8,6.93
21,rikitea,PF,4030556,0,74,-134.97,-23.12,70.07,18.95
22,husavik,IS,2629833,90,81,-17.34,66.04,48.2,5.82
23,nikolskoye,RU,546105,40,100,30.79,59.7,57.0,6.71
24,talnakh,RU,1490256,75,76,88.4,69.49,53.6,15.66
25,ostrovnoy,RU,556268,100,92,39.51,68.05,51.21,2.57
26,hofn,IS,2630299,19,87,-15.21,64.25,51.67,10.6
27,nanortalik,GL,3421765,100,90,-45.24,60.14,45.52,3.36
28,cayenne,GF,3382160,25,100,-52.33,4.93,77.0,3.36
29,bredasdorp,ZA,1015776,53,93,20.04,-34.53,35.6,5.82
30,hobart,AU,2163355,20,57,147.33,-42.88,52.0,8.05
31,goderich,CA,5962442,0,84,-81.72,43.75,66.0,6.67
32,vardo,NO,777019,91,86,31.11,70.37,52.43,6.76
33,mayya,RU,2020121,68,43,130.28,61.73,71.6,2.24
34,pevek,RU,2122090,100,96,170.31,69.7,38.44,11.81
35,north bend,US,5742974,1,77,-124.22,43.41,70.0,23.04
36,lahij,YE,6201197,100,40,44.58,13.17,88.09,0.27
37,upernavik,GL,3418910,100,70,-56.15,72.79,40.55,7.72
38,hudson bay,CA,5978133,30,82,-102.38,52.85,66.36,9.82
39,busselton,AU,2075265,74,43,115.33,-33.65,60.01,21.0
40,ningbo,CN,1799397,96,66,121.55,29.88,90.0,11.18
41,ixtapa,MX,4004293,75,84,-105.2,20.7,86.0,3.36
42,dikson,RU,1507390,99,99,80.55,73.51,45.03,17.07
43,albany,US,5106841,100,83,-73.97,42.6,73.0,4.25
44,dobryanka,RU,565778,75,100,56.42,58.46,57.2,4.47
45,grants pass,US,5729080,1,24,-123.33,42.44,80.01,14.99
46,bengkulu,ID,1649150,53,75,102.27,-3.8,82.72,1.92
47,ziyang,CN,1790863,100,69,117.85,29.25,87.78,3.18
48,kapaa,US,5848280,90,74,-159.32,22.08,84.2,12.75
49,arlit,NE,2447513,84,64,7.39,18.74,82.54,13.4
50,padang,ID,1633419,73,57,100.35,-0.95,84.09,0.89
51,codrington,AU,2171099,100,89,141.97,-38.27,50.31,14.32
52,rzhyshchiv,UA,694992,0,82,31.05,49.97,64.99,8.95
53,mataura,NZ,6201424,91,88,168.86,-46.19,48.0,5.99
54,marsa matruh,EG,352733,0,88,27.25,31.35,75.2,5.82
55,mar del plata,AR,3430863,0,100,-57.56,-38.0,48.0,7.11
56,provideniya,RU,4031574,66,58,-173.3,64.38,51.35,6.85
57,bethel,US,5282297,75,77,-73.41,41.37,69.8,4.7
58,korla,CN,1529376,72,21,86.15,41.76,86.76,10.92
59,fairbanks,US,5861897,40,35,-147.72,64.84,71.6,9.17
60,airai,TL,1651810,32,55,125.41,-8.93,72.68,2.68
61,wajir,KE,178443,96,72,40.06,1.75,70.57,12.55
62,sitka,US,5557293,90,87,-135.33,57.05,57.2,12.75
63,san isidro,PE,3929631,90,87,-77.05,-12.12,59.0,4.7
64,cocorit,MX,4013593,0,53,-109.97,27.58,92.53,8.3
65,norrtalje,SE,2688250,11,77,18.7,59.76,66.99,3.0
66,port alfred,ZA,964432,45,69,26.89,-33.59,54.5,8.25
67,labuhan,ID,8079926,100,69,112.21,-6.88,80.64,6.58
68,chokurdakh,RU,2126123,100,81,147.92,70.63,52.14,11.92
69,coquimbo,CL,3893629,0,87,-71.34,-29.95,51.8,1.12
70,georgetown,MY,1735106,20,83,100.34,5.41,86.0,4.7
71,new norfolk,AU,2155415,14,71,147.06,-42.78,52.0,1.99
72,bella union,UY,3443631,89,80,-57.6,-30.28,65.19,5.28
73,tuktoyaktuk,CA,6170031,75,87,-133.04,69.45,55.4,13.87
74,cabo san lucas,MX,3985710,5,69,-109.91,22.89,87.01,11.41
75,castro,BR,3466704,8,70,-50.01,-24.79,53.4,2.64
76,barrow,US,5880054,90,86,-156.79,71.29,41.0,12.75
77,medea,DZ,2488835,0,88,2.75,36.26,64.4,1.9
78,ozerna,UA,698110,100,93,25.33,49.63,64.31,6.11
79,kaduqli,SD,373141,100,85,29.72,11.02,73.62,5.46
80,punta arenas,CL,3874787,57,64,-70.92,-53.15,37.4,9.17
81,saint-philippe,RE,935215,20,59,55.77,-21.36,66.2,9.17
82,gigmoto,PH,1712961,100,84,124.39,13.78,79.54,8.61
83,salalah,OM,286621,90,94,54.09,17.02,77.0,3.36
84,bathsheba,BB,3374083,40,78,-59.52,13.22,82.4,20.8
85,aksu,CN,1529660,0,23,80.26,41.12,86.99,5.64
86,haines junction,CA,5969025,29,53,-137.51,60.75,58.62,11.63
87,klaksvik,FO,2618795,23,93,-6.59,62.23,51.8,3.36
88,alofi,NU,4036284,3,69,-169.92,-19.06,75.2,6.93
89,faanui,PF,4034551,0,74,-151.75,-16.48,79.0,13.73
90,ponta do sol,PT,2264557,20,78,-17.1,32.67,71.6,2.24
91,malakal,SS,370737,100,88,31.66,9.53,72.39,2.82
92,saint-joseph,RE,6690296,20,59,55.62,-21.37,66.2,9.17
93,pangnirtung,CA,6096551,97,53,-65.71,66.15,47.03,2.84
94,dicabisagan,PH,1715015,4,60,122.42,17.08,87.64,1.88
95,khatanga,RU,2022572,100,80,102.5,71.97,56.88,17.22
96,dingle,PH,1714733,94,82,122.67,11.0,82.92,11.3
97,rawson,AR,3839307,98,60,-65.1,-43.3,47.64,16.89
98,oxapampa,PE,3933874,4,80,-75.4,-10.58,56.46,3.67
99,xam nua,LA,1652203,67,82,104.04,20.42,77.22,0.16
100,kautokeino,NO,779330,61,79,23.04,69.01,48.16,1.9
101,sarkhej,IN,1257149,75,88,72.5,22.98,80.6,3.36
102,east london,ZA,1006984,49,69,27.91,-33.02,54.1,9.31
103,makarov,RU,2123614,1,59,142.8,48.63,66.15,1.52
104,atambua,ID,1651103,93,53,124.89,-9.11,82.98,1.07
105,atuona,PF,4020109,21,74,-139.03,-9.8,78.98,23.02
106,sechura,PE,3691954,10,77,-80.82,-5.56,62.53,16.24
107,nizwa,OM,286987,100,49,57.53,22.93,84.81,3.44
108,riyadh,SA,108410,100,21,46.72,24.69,84.2,4.7
109,port elizabeth,ZA,964420,76,93,25.57,-33.92,46.4,3.36
110,uglegorsk,RU,2120261,63,73,142.03,49.08,59.68,12.75
111,debelec,BG,6460811,11,88,25.62,43.03,66.2,2.24
112,tasiilaq,GL,3424607,21,75,-37.64,65.61,44.6,18.34
113,qaanaaq,GL,3831208,0,79,-69.36,77.48,36.72,4.45
114,komsomolskiy,UZ,1513491,0,42,71.72,40.43,80.6,4.7
115,victoria,HK,1819729,97,62,114.16,22.29,91.0,10.0
116,lebu,CL,3883457,100,88,-73.65,-37.62,47.7,6.55
117,san ramon,US,5392593,1,36,-121.98,37.78,82.0,11.41
118,celestun,MX,3531368,100,72,-90.4,20.87,83.8,13.29
119,bairiki,KI,7601762,75,74,172.98,1.33,87.8,10.29
120,port blair,IN,1259385,100,86,92.75,11.67,80.44,12.71
121,konya,TR,306569,0,36,32.5,38.17,64.4,4.7
122,qandala,SO,53157,48,56,49.87,11.47,86.99,7.38
123,zhigansk,RU,2012530,83,49,123.37,66.77,63.21,14.83
124,taltal,CL,3870243,39,79,-70.48,-25.4,55.11,1.77
125,kodiak,US,5866583,90,82,-152.41,57.79,57.2,1.54
126,margate,GB,2643044,56,44,1.39,51.38,75.99,9.1
127,tilichiki,RU,2120591,2,47,166.1,60.47,62.47,11.5
128,umm kaddadah,SD,364933,92,59,26.69,13.6,83.1,5.59
129,hualmay,PE,3939761,13,81,-77.61,-11.1,60.08,8.14
130,toora-khem,RU,1489401,100,86,96.11,52.47,53.78,2.26
131,madras,IN,1264527,40,62,80.28,13.09,87.8,5.82
132,tres arroyos,AR,3833859,49,62,-60.28,-38.37,43.63,5.44
133,hermanus,ZA,3366880,8,43,19.23,-34.42,53.01,1.99
134,hithadhoo,MV,1282256,49,79,73.08,-0.6,82.62,11.61
135,zamosc,PL,753866,1,100,23.25,50.72,64.4,4.7
136,cabedelo,BR,3404558,20,94,-34.83,-6.98,71.6,6.93
137,butaritari,KI,2110227,11,73,172.79,3.07,84.18,18.03
138,horsham,GB,2646557,92,68,-0.33,51.06,69.8,5.82
139,mehamn,NO,778707,56,90,27.85,71.04,50.7,9.44
140,te anau,NZ,2181625,5,63,167.72,-45.42,45.39,1.1
141,saryg-sep,RU,1492948,100,61,95.6,51.5,60.8,1.68
142,vestmannaeyjar,IS,3412093,90,87,-20.27,63.44,48.06,19.06
143,tuatapere,NZ,2180815,93,88,167.68,-46.13,48.0,5.99
144,kilrush,IE,2963218,20,93,-9.48,52.64,51.8,1.12
145,narsaq,GL,3421719,100,87,-46.05,60.92,44.6,5.82
146,mitsamiouli,KM,921786,6,71,43.28,-11.38,75.09,19.17
147,biak,ID,1637001,32,66,122.88,-0.91,81.97,5.95
148,sao filipe,CV,3374210,41,88,-24.5,14.9,77.88,11.18
149,faya,SA,110690,20,82,42.45,18.39,66.2,3.56
150,guerrero negro,MX,4021858,0,72,-114.06,27.98,70.02,17.63
151,puerto narino,CO,3671387,75,100,-70.38,-3.77,73.4,3.36
152,rocha,UY,3440777,100,97,-54.33,-34.48,54.21,5.17
153,kristiinankaupunki,FI,650769,0,80,21.38,62.27,63.03,10.58
154,codo,BR,3402000,0,60,-43.89,-4.46,72.75,1.5
155,barra da estiva,BR,3470744,62,99,-41.33,-13.63,56.59,5.64
156,bowmore,US,4486983,1,88,-79.3,34.94,75.2,9.17
157,ketchikan,US,5554428,90,82,-131.65,55.34,59.0,9.17
158,kavieng,PG,2094342,100,89,150.8,-2.57,78.3,15.95
159,ilulissat,GL,3423146,100,80,-51.1,69.22,39.2,3.36
160,vila velha,BR,3445026,40,93,-40.29,-20.33,66.2,2.24
161,torbay,CA,6167817,75,77,-52.73,47.67,66.2,10.29
162,clyde river,CA,5924351,90,86,-68.59,70.47,39.2,20.8
163,la ronge,CA,6050066,90,88,-105.28,55.1,62.6,10.29
164,boddam,GB,2655288,100,87,-1.78,57.47,53.6,3.36
165,picayune,US,4440975,7,85,-89.68,30.53,80.01,2.98
166,antalaha,MG,1071296,37,82,50.28,-14.9,65.41,6.08
167,kailua,US,5847486,75,66,-157.74,21.4,84.2,11.41
168,thoen,TH,1150154,100,82,99.22,17.61,81.91,1.48
169,cidreira,BR,3466165,0,82,-50.21,-30.18,59.07,5.19
170,seredka,RU,496859,26,93,28.19,58.16,53.6,0.98
171,vila franca do campo,PT,3372472,75,83,-25.43,37.72,69.8,10.29
172,natal,BR,3394023,0,83,-35.21,-5.79,73.4,10.29
173,avarua,CK,4035715,32,83,-159.78,-21.21,77.0,5.82
174,hasaki,JP,2112802,75,78,140.83,35.73,86.0,8.05
175,susanville,US,5572400,1,23,-120.65,40.42,86.0,6.93
176,lincolnton,US,4475995,75,100,-81.25,35.47,72.0,2.1
177,saint-augustin,CA,6137462,0,55,-58.65,51.23,67.82,5.79
178,samarai,PG,2132606,11,84,150.67,-10.62,80.37,11.72
179,flinders,AU,6255012,75,96,150.86,-34.58,60.01,5.01
180,mahebourg,MU,934322,40,88,57.7,-20.41,64.4,3.36
181,puerto ayora,EC,3652764,99,90,-90.35,-0.74,66.99,4.0
182,kungurtug,RU,1501377,66,55,97.52,50.6,58.37,2.71
183,san quintin,MX,3984997,0,74,-115.95,30.48,68.43,13.89
184,vostok,RU,2013279,100,88,135.88,46.49,58.91,2.28
185,san lorenzo,PY,3437056,0,63,-57.53,-25.33,66.2,2.24
186,mtama,TZ,877784,2,81,39.37,-10.3,64.83,2.46
187,carnarvon,AU,2074865,58,57,113.63,-24.87,75.2,14.99
188,erenhot,CN,2037485,96,35,111.98,43.65,78.8,11.25
189,nuevo casas grandes,MX,3994616,99,66,-107.92,30.42,70.2,5.95
190,mackenzie,CA,6063191,75,62,-123.17,55.3,59.0,11.41
191,ponta delgada,PT,3372783,75,83,-25.67,37.73,69.8,10.29
192,sorland,NO,3137469,86,77,12.69,67.67,60.1,7.81
193,cape town,ZA,3369157,35,93,18.42,-33.93,45.0,4.7
194,thompson,CA,6165406,75,65,-97.86,55.74,78.8,5.82
195,katsuura,JP,2112309,81,75,140.3,35.13,86.0,5.99
196,puerto quijarro,BO,3444201,0,35,-57.77,-17.78,70.47,2.13
197,qeshm,IR,119374,100,79,56.27,26.96,91.4,2.24
198,lorengau,PG,2092164,100,70,147.27,-2.02,85.01,5.97
199,marzuq,YE,72181,100,37,46.47,14.4,81.88,3.71
200,lake charles,US,4330236,5,74,-93.2,30.21,84.2,4.7
201,kirakira,SB,2178753,100,65,161.92,-10.45,84.61,10.56
202,dawei,MM,1293625,100,80,98.2,14.08,82.06,4.97
203,sao felix do xingu,BR,3388847,24,53,-51.99,-6.64,73.58,1.79
204,severo-kurilsk,RU,2121385,100,93,156.12,50.68,53.47,24.52
205,kavaratti,IN,1267390,100,79,72.64,10.57,81.93,21.18
206,careiro da varzea,BR,3402920,5,69,-59.81,-3.2,82.4,3.36
207,sao miguel do araguaia,BR,3448455,95,40,-50.16,-13.28,75.02,5.73
208,kudahuvadhoo,MV,1337607,100,80,72.89,2.67,82.98,12.84
209,pierre,US,5767918,1,74,-100.35,44.37,82.99,9.17
210,silifke,TR,300808,6,67,33.93,36.38,76.93,4.45
211,kruisfontein,ZA,986717,100,51,24.73,-34.0,47.55,6.35
212,varnamo,SE,2664855,46,91,14.04,57.19,57.0,3.02
213,gberia fotombu,SL,2409019,100,97,-11.17,9.88,68.59,6.22
214,sangar,RU,2017215,2,37,127.47,63.92,72.5,2.01
215,along,IN,1278969,100,86,94.77,28.17,79.41,1.05
216,san cristobal,VE,3628473,87,91,-72.22,7.77,66.34,4.03
217,napier,NZ,2186313,93,75,176.92,-39.48,53.01,17.0
218,bonavista,CA,5905393,17,85,-53.11,48.65,61.0,3.0
219,khash,IR,1160571,100,20,61.22,28.22,77.23,9.78
220,sakib,JO,247068,0,50,35.81,32.28,75.2,3.36
221,krasnovka,RU,542182,0,80,40.09,48.82,66.63,8.79
222,port hardy,CA,6111862,90,100,-127.42,50.7,57.2,4.7
223,barra patuca,HN,3614835,86,83,-84.28,15.8,80.71,10.13
224,bekhteyevka,RU,578283,0,77,37.21,50.81,59.0,8.95
225,bushehr,IR,139817,48,83,50.84,28.97,84.2,2.98
226,salym,RU,1493162,0,60,71.48,60.06,66.52,3.29
227,ambilobe,MG,1082243,41,83,49.05,-13.2,63.73,2.73
228,ternate,ID,1624041,83,74,127.4,0.8,82.92,7.63
229,saint george,US,5546220,1,7,-113.58,37.1,96.8,9.17
230,masvingo,ZW,886763,73,83,30.83,-20.06,50.63,11.5
231,longyearbyen,SJ,2729907,20,87,15.64,78.22,48.2,2.24
232,simpang,ID,1627035,43,82,104.08,-1.27,82.74,4.68
233,bouza,NE,2446466,100,82,6.04,14.42,74.61,15.01
234,lloydminster,CA,6058024,90,100,-110.0,53.28,53.6,20.8
235,aykhal,RU,2027296,1,68,111.5,66.0,64.4,2.24
236,ciudad bolivar,VE,3645532,85,83,-63.55,8.12,78.69,9.26
237,lasa,IT,3175096,40,62,10.7,46.62,60.01,11.41
238,srednekolymsk,RU,2121025,100,60,153.68,67.45,63.21,9.82
239,gat,IL,293842,45,50,34.76,31.61,78.01,5.73
240,kaitangata,NZ,2208248,51,60,169.85,-46.28,51.01,7.0
241,caravelas,BR,3466980,24,80,-39.25,-17.71,69.69,6.64
242,knysna,ZA,988698,100,80,23.05,-34.04,39.2,4.7
243,norman wells,CA,6089245,75,72,-126.83,65.28,64.4,6.93
244,varhaug,NO,3132644,98,64,5.65,58.61,71.6,11.41
245,port lincoln,AU,2063036,84,73,135.87,-34.73,56.25,15.12
246,sao jose da coroa grande,BR,3388456,9,85,-35.15,-8.9,73.49,11.07
247,mayo,US,4362001,90,84,-76.51,38.89,75.99,3.36
248,pontes e lacerda,BR,3453060,0,34,-59.34,-15.23,72.27,4.27
249,veraval,IN,1253237,100,80,70.37,20.9,83.37,22.03
250,dubove,UA,709516,10,82,23.89,48.17,64.4,2.24
251,mogadishu,SO,53654,7,72,45.34,2.04,75.61,19.6
252,lavrentiya,RU,4031637,51,68,-171.0,65.58,46.45,8.57
253,chenzhou,CN,1815059,100,58,113.03,25.8,88.88,7.56
254,lehigh acres,US,4161785,1,94,-81.62,26.63,75.2,4.7
255,havoysund,NO,779622,74,87,24.66,71.0,48.2,4.7
256,whitehorse,CA,6180550,75,58,-135.05,60.72,57.2,9.17
257,valdivia,CL,3868707,90,100,-73.25,-39.81,37.4,2.24
258,tura,IN,1254046,100,93,90.22,25.52,79.3,4.59
259,birao,CF,240210,94,96,22.79,10.28,70.38,4.25
260,yulara,AU,6355222,0,58,130.99,-25.24,53.6,1.12
261,olafsvik,IS,3414079,94,84,-23.71,64.89,47.05,11.05
262,fort nelson,CA,5955902,40,43,-122.7,58.81,69.8,3.36
263,hami,CN,1529484,0,14,93.45,42.8,89.2,8.34
264,vanavara,RU,2013727,5,45,102.28,60.34,71.28,6.51
265,luau,AO,876177,0,35,22.22,-10.71,59.14,4.27
266,bassar,TG,2367568,55,100,0.78,9.25,64.81,3.85
267,isiolo,KE,196231,100,61,37.58,0.35,66.51,7.99
268,ancud,CL,3899695,90,100,-73.82,-41.87,50.0,11.41
269,leopoldov,SK,3059111,25,88,17.76,48.45,66.0,4.7
270,buta,CD,217570,31,97,24.73,2.79,68.68,1.77
271,chuy,UY,3443061,100,97,-53.46,-33.7,56.07,6.44
272,sheltozero,RU,494970,78,92,35.37,61.37,59.45,6.71
273,jumla,NP,1283285,1,63,82.18,29.27,68.76,1.72
274,luderitz,NA,3355672,0,24,15.16,-26.65,59.0,9.17
275,felipe carrillo puerto,MX,3527639,100,91,-88.05,19.58,77.04,3.31
276,warri,NG,2319133,100,88,5.75,5.52,74.34,3.74
277,gao,ML,2457161,47,70,1.64,16.64,80.71,16.02
278,shache,CN,1280037,0,14,77.24,38.42,88.77,3.09
279,la romana,DO,3500957,40,88,-68.97,18.43,78.8,5.82
280,axim,GH,2303611,21,83,-2.24,4.87,73.2,9.26
281,muros,ES,3115824,2,79,-9.06,42.78,66.99,5.01
282,hays,US,4696788,1,58,-98.03,30.05,89.01,4.0
283,jaisalmer,IN,1269507,100,87,70.92,26.91,81.41,10.83
284,half moon bay,US,5354943,5,53,-122.43,37.46,73.4,13.87
285,aklavik,CA,5882953,90,82,-135.01,68.22,57.2,10.29
286,geraldton,AU,2070998,2,42,114.6,-28.77,68.0,24.16
287,sumbe,AO,3346015,31,91,13.84,-11.21,68.92,3.15
288,mangai,CD,2313084,3,62,19.53,-4.05,74.16,1.43
289,mana,GF,3381041,2,81,-53.78,5.66,78.98,8.79
290,port hedland,AU,2063042,0,25,118.57,-20.32,75.2,18.34
291,baykit,RU,1510689,88,53,96.37,61.67,70.18,2.53
292,kutum,SD,371745,98,80,24.67,14.2,71.6,14.38
293,hamilton,US,4513583,40,82,-84.53,39.18,72.0,5.41
294,marica,BR,3457708,0,77,-42.82,-22.92,69.8,2.24
295,maniitsoq,GL,3421982,96,74,-52.9,65.42,42.82,6.98
296,dehui,CN,2037712,4,57,125.7,44.53,80.6,8.95
297,waddan,LY,2209055,0,69,16.14,29.16,73.45,4.36
298,stavern,NO,3137091,0,100,10.03,59.0,59.0,1.41
299,homer,US,5864145,75,87,-151.55,59.64,57.0,6.93
300,arvika,SE,2725123,51,100,12.59,59.66,62.01,3.36
301,fort washington,US,4355355,20,94,-77.02,38.71,77.0,4.05
302,monrovia,LR,2274895,100,84,-10.8,6.3,75.49,12.03
303,esperance,AU,2071860,35,93,121.9,-33.87,50.0,9.17
304,novo oriente,BR,3393783,0,55,-40.77,-5.53,72.57,6.17
305,ribeira grande,PT,3372707,17,75,-28.7,38.52,69.57,12.8
306,cody,US,5821593,1,38,-109.06,44.53,88.0,10.29
307,comodoro rivadavia,AR,3860443,100,57,-67.5,-45.87,48.2,4.7
308,grand gaube,MU,934479,40,88,57.66,-20.01,64.4,3.36
309,vao,NC,2137773,77,64,167.48,-22.67,69.69,6.96
310,neuquen,AR,3843123,100,60,-68.06,-38.95,42.8,2.24
311,tukan,RU,480637,65,87,57.46,53.84,60.57,2.77
312,broken hill,AU,2173911,32,87,141.43,-31.95,44.6,12.75
313,ahuimanu,US,5856516,75,66,-157.84,21.44,84.2,11.41
314,sambava,MG,1056899,2,86,50.17,-14.27,65.08,7.0
315,souillac,MU,933995,40,88,57.52,-20.52,64.4,3.36
316,shaping,CN,1795842,99,75,112.96,22.75,91.0,1.01
317,anadyr,RU,2127202,75,76,177.48,64.75,55.4,11.18
318,sijunjung,ID,1627185,19,56,100.95,-0.69,83.12,0.56
319,bagdarin,RU,2027244,100,91,113.6,54.43,55.08,4.14
320,madawaska,US,4970938,1,46,-68.33,47.36,69.8,8.05
321,solnechnyy,RU,2016307,5,48,136.63,50.72,69.6,2.95
322,lugo,ES,3117813,0,100,-7.5,43.0,55.99,1.99
323,tommot,RU,2015179,100,59,126.29,58.96,66.06,3.76
324,tomiya,JP,2110744,75,83,140.89,38.39,75.2,4.7
325,lawrenceburg,US,4297581,1,73,-84.9,38.04,69.8,4.43
326,leningradskiy,RU,2123814,100,82,178.42,69.38,40.98,7.07
327,porto santo,PT,8010683,20,88,-16.34,33.07,71.6,5.82
328,longhua,CN,1802618,85,63,114.19,23.61,88.74,2.95
329,banyo,CM,2234794,100,94,11.82,6.75,63.7,0.72
330,vila do maio,CV,3374120,75,88,-23.22,15.13,78.8,12.75
331,arraial do cabo,BR,3471451,0,77,-42.03,-22.97,70.66,20.2
332,kiama,AU,2161515,78,89,150.87,-34.68,60.01,5.99
333,nome,US,5870133,90,71,-165.41,64.5,59.0,12.75
334,rudsar,IR,118191,75,78,50.29,37.14,73.4,2.24
335,uthal,PK,1162862,100,77,66.62,25.81,85.77,4.88
336,palmas bellas,PA,3703523,100,83,-80.09,9.23,81.0,7.0
337,powell river,CA,6112608,90,93,-124.54,49.85,62.6,11.41
338,verkhnyaya inta,RU,1487332,100,80,60.31,65.98,52.88,7.72
339,belaya gora,RU,2126785,97,83,146.42,68.53,56.52,4.0
340,charagua,BO,3921141,0,43,-63.22,-19.8,65.71,2.1
341,kalabo,ZM,915471,0,37,22.68,-14.97,57.49,5.55
342,irbeyskoye,RU,1505529,96,91,95.45,55.64,62.56,7.25
343,porangatu,BR,3453014,30,47,-49.15,-13.44,72.3,7.27
344,alexandria,EG,361058,0,83,29.96,31.22,80.6,8.05
345,kysyl-syr,RU,2021017,100,44,122.76,63.9,73.33,0.89
346,avera,US,4231997,1,67,-82.53,33.19,77.0,3.36
347,kibala,TD,2425791,84,95,18.35,9.11,70.99,3.49
348,inirida,CO,3671450,9,92,-67.92,3.87,71.22,1.43
349,sola,VU,2134814,3,82,167.55,-13.88,77.34,16.87
350,pisco,PE,3932145,3,82,-76.22,-13.7,60.8,2.24
351,karasburg,NA,3356343,0,38,18.75,-28.02,51.33,14.61
352,palmeira das missoes,BR,3455416,26,81,-53.31,-27.9,57.7,5.08
353,mandalgovi,MN,2030065,73,51,106.27,45.76,61.05,8.55
354,landskrona,SE,2697720,59,78,12.83,55.87,64.99,7.47
355,los aquijes,PE,3935969,0,82,-75.69,-14.1,60.8,2.24
356,kloulklubed,PW,7671223,90,74,134.26,7.04,84.2,15.21
357,ilheus,BR,3461408,27,89,-39.05,-14.79,68.54,5.19
358,maharajganj,IN,1264433,40,100,83.57,27.13,84.2,4.7
359,igarka,RU,1505991,100,71,86.58,67.47,60.19,4.34
360,rustam,PK,1166720,75,94,68.8,27.97,80.6,1.19
361,viedma,AR,3832899,100,77,-63.0,-40.81,45.0,1.99
362,bambous virieux,MU,1106677,40,88,57.76,-20.34,64.99,3.36
363,gorontalo,ID,1643837,1,61,123.06,0.54,86.36,6.71
364,hay river,CA,5972762,75,100,-115.8,60.82,64.4,6.93
365,rabak,SD,368277,98,75,32.74,13.18,78.64,10.07
366,gravdal,NO,3155152,97,75,13.5,68.12,59.97,10.07
367,road town,VG,3577430,100,86,-64.62,18.42,84.0,18.01
368,ukiah,US,5404476,1,29,-123.21,39.15,87.8,3.36
369,bubaque,GW,2374583,100,85,-15.83,11.28,79.93,10.65
370,coihaique,CL,3894426,100,86,-72.07,-45.58,37.4,3.36
371,benjamin hill,MX,4017152,1,55,-111.1,30.17,93.99,5.01
372,santa cruz,BO,3904906,0,77,-63.17,-17.8,69.8,2.24
373,kulhudhuffushi,MV,1337613,100,75,73.07,6.62,82.49,15.99
374,nabire,ID,1634614,60,61,135.48,-3.37,87.22,3.36
375,asau,RO,686090,7,66,26.4,46.43,66.0,6.02
376,ornskoldsvik,SE,2686469,90,100,18.72,63.29,55.4,3.36
377,lompoc,US,5367788,3,68,-120.46,34.64,66.2,13.87
378,havelock,US,4470244,1,83,-76.9,34.88,82.0,10.29
379,muhos,FI,645765,48,100,25.99,64.81,55.4,2.24
380,coria,ES,2519234,0,55,-6.54,39.99,77.0,1.99
381,lufilufi,WS,4035249,56,80,-171.6,-13.87,80.62,13.65
382,seoul,KR,1835848,90,78,126.98,37.57,78.8,7.52
383,cagliari,IT,2525471,0,83,9.09,39.24,73.99,5.82
384,matara,LK,1235846,100,83,80.54,5.95,79.32,11.1
385,jadu,LY,2216432,0,74,12.03,31.95,63.18,3.71
386,mandali,IQ,93709,0,23,45.55,33.75,90.21,12.08
387,touros,BR,3386213,0,88,-35.46,-5.2,71.6,4.7
388,iqaluit,CA,5983720,75,62,-68.51,63.75,51.8,8.05
389,acari,PE,3948613,11,61,-74.62,-15.43,61.18,3.62
390,ayagoz,KZ,1525988,0,40,80.44,47.97,71.19,12.88
391,carballo,ES,3126369,34,93,-8.69,43.21,64.4,2.24
392,concordia,AR,3435261,100,80,-58.02,-31.39,66.0,10.0
393,qaqortoq,GL,3420846,100,87,-46.03,60.72,44.6,5.82
394,odweyne,SO,53372,99,63,45.06,9.41,72.05,17.05
395,gizo,SB,2108857,99,73,156.84,-8.1,84.15,10.27
396,palafrugell,ES,3114567,0,51,3.16,41.92,71.01,3.47
397,acapulco,MX,3533462,75,74,-99.89,16.86,84.2,3.36
398,sommerda,DE,2831403,0,64,11.1,51.15,68.0,9.17
399,vieste,IT,3164387,20,88,16.18,41.88,71.6,10.29
400,paka,MY,1734313,40,89,103.44,4.64,84.2,5.82
401,ibague,CO,3680656,25,61,-75.23,4.44,68.0,4.99
402,rapid valley,US,5768244,1,44,-103.15,44.06,75.2,10.29
403,portland,US,5746545,40,41,-122.68,45.52,75.2,10.29
404,laguna,US,5364271,1,29,-121.42,38.42,91.4,6.93
405,amga,RU,2027786,68,32,131.96,60.9,76.03,4.38
406,mukdahan,TH,1608595,75,79,104.5,16.58,84.2,2.24
407,yarovoye,RU,1486340,8,70,78.58,52.93,68.7,4.0
408,ploemeur,FR,2986732,0,77,-3.43,47.73,66.99,4.7
409,sapang,PH,1687302,52,72,120.52,15.7,85.46,7.16
410,westerland,DE,2810284,2,93,8.3,54.91,64.4,8.05
411,agirish,RU,1512101,40,95,63.02,61.92,58.66,6.87
412,prince rupert,CA,6113406,90,93,-130.32,54.32,55.4,3.36
413,san carlos,VE,3628503,0,92,-68.58,9.66,73.44,1.19
414,ucluelet,CA,6171633,90,93,-125.55,48.93,59.0,9.17
415,conceicao do araguaia,BR,3401845,0,44,-49.26,-8.26,74.91,4.63
416,palmas,BR,3474574,0,56,-48.36,-10.21,71.6,5.82
417,buracan,PH,1722494,100,88,123.5,13.6,78.15,4.92
418,grahamstown,ZA,1000501,89,78,26.53,-33.3,42.64,4.09
419,batemans bay,AU,2176639,100,100,150.18,-35.72,55.99,1.01
420,ribera,IT,2523619,0,93,13.26,37.5,69.01,7.0
421,kentau,KZ,1522751,0,29,68.51,43.52,82.45,0.29
422,saldanha,ZA,3361934,99,75,17.94,-33.01,42.8,2.24
423,manado,ID,1636544,20,55,124.85,1.49,87.8,2.24
424,chacarita,CR,3624288,20,100,-84.77,9.98,71.6,3.36
425,whakatane,NZ,2208330,53,65,176.99,-37.96,55.99,7.0
426,noumea,NC,2139521,1,54,166.46,-22.28,78.8,8.05
427,mount gambier,AU,2156643,90,76,140.77,-37.83,53.6,19.46
428,lipin bor,RU,535113,81,93,37.98,60.26,56.1,4.03
429,tucupita,VE,3625929,91,94,-62.05,9.06,75.15,3.67
430,perth,AU,2063523,0,50,115.83,-31.93,60.01,19.46
431,broome,US,5110365,90,88,-75.83,42.25,68.0,5.82
432,wamba,NG,2319257,100,92,8.6,8.93,69.28,1.83
433,karrapur,IN,1267680,54,88,78.85,23.95,77.54,11.92
434,braco do norte,BR,3469115,0,72,-49.17,-28.27,56.89,2.1
435,wonthaggi,AU,2154826,98,92,145.59,-38.6,57.0,14.81
436,pedernales,DO,3495137,100,69,-71.74,18.04,83.01,3.02
437,yarada,IN,1252783,75,94,83.27,17.65,82.4,4.7
438,alice springs,AU,2077895,0,50,133.88,-23.7,55.4,9.17
439,panama city,PA,3703443,97,83,-79.52,8.99,80.6,8.05
440,glazunovka,RU,561313,0,86,36.33,52.5,57.7,7.23
441,gibara,CU,3558315,75,83,-76.13,21.11,80.6,8.05
442,colinas,BR,3401963,0,53,-44.25,-6.03,72.91,3.22
443,dalvik,IS,2632287,90,81,-18.53,65.97,48.2,5.82
444,santa luzia,BR,3450144,0,67,-43.85,-19.77,60.8,1.12
445,correntina,BR,3465373,94,60,-44.64,-13.34,67.95,4.59
446,almaznyy,RU,582447,0,59,40.05,48.04,66.2,4.47
447,cap malheureux,MU,934649,40,88,57.61,-19.98,64.4,3.36
448,buga,CO,3688256,75,69,-76.3,3.9,77.0,5.82
449,san jeronimo,PE,3929611,2,63,-75.28,-11.95,46.89,2.53
450,grindavik,IS,3416888,75,87,-22.43,63.84,46.4,16.11
451,los llanos de aridane,ES,2514651,75,69,-17.92,28.66,75.2,12.75
452,pacific grove,US,5380437,20,68,-121.92,36.62,66.2,9.17
453,petropavlovsk-kamchatskiy,RU,2122104,90,100,158.65,53.05,53.6,8.95
454,pleasanton,US,5383777,1,36,-121.87,37.66,82.0,11.41
455,krasnoselkup,RU,1502073,84,62,82.47,65.7,70.18,6.06
456,miri,MY,1738050,20,55,114.01,4.41,89.6,5.82
457,agalteca,HN,3615582,75,100,-87.27,14.45,75.2,8.05
458,maumere,ID,1635815,100,68,122.21,-8.62,79.25,4.92
459,sanmenxia,CN,1796669,15,68,111.18,34.77,82.85,3.96
460,thinadhoo,MV,1337610,62,78,72.93,0.53,82.85,10.89
461,kropotkin,RU,540761,0,58,40.58,45.44,71.83,6.62
462,liverpool,GB,2644210,33,82,-2.98,53.41,66.2,6.93
463,longyan,CN,1802276,50,58,117.02,25.11,86.94,4.18
464,cabarroguis,PH,1721777,100,67,121.5,16.58,85.23,2.37
465,richards bay,ZA,962367,0,79,32.04,-28.78,55.83,5.39
466,port macquarie,AU,2152659,30,83,152.92,-31.43,63.0,3.87
467,warrenton,ZA,941931,16,78,24.85,-28.11,47.88,16.58
468,dharchula,IN,1272864,40,70,80.53,29.85,75.29,1.92
469,limoux,FR,2998262,0,94,2.17,42.92,69.01,3.06
470,spirit river,CA,6153766,40,45,-118.84,55.78,64.0,21.92
471,shenjiamen,CN,1795632,76,87,122.3,29.96,81.19,20.56
472,azua,DO,3512208,100,79,-70.73,18.45,78.53,3.38
473,bilibino,RU,2126682,100,66,166.44,68.05,51.44,5.26
474,poum,NC,2138555,73,70,164.02,-20.23,70.95,5.73
475,pangai,TO,4032369,75,61,-174.35,-19.8,77.0,2.24
476,westport,US,4845585,75,78,-73.36,41.14,73.4,5.82
477,andilamena,MG,1076194,2,94,48.58,-17.02,52.2,2.68
478,denpasar,ID,1645528,20,94,115.22,-8.65,80.6,13.87
479,necochea,AR,3430443,54,67,-58.74,-38.55,45.48,6.8
480,alpena,US,4984075,1,88,-83.43,45.06,66.0,6.35
481,nhulunbuy,AU,2064735,40,58,136.77,-12.23,84.2,13.87
482,bayonet point,US,4146901,99,66,-82.68,28.33,82.99,5.64
483,balkhash,KZ,1525798,20,31,74.98,46.84,75.2,13.42
484,okha,RU,2122614,0,61,142.95,53.57,62.46,4.52
485,adrar,MR,2381972,60,15,-10.07,20.5,96.17,16.35
486,vytegra,RU,469960,65,95,36.45,61.01,58.46,4.94
487,puro,PH,1692364,100,79,123.38,12.48,82.62,9.42
488,ust-tsilma,RU,477940,100,89,52.15,65.44,52.74,4.0
489,isangel,VU,2136825,75,57,169.27,-19.55,78.8,9.17
490,omboue,GA,2396853,31,82,9.26,-1.57,72.95,4.83
491,hambantota,LK,1244926,75,83,81.12,6.12,80.6,10.29
492,chara,RU,2025630,70,61,118.26,56.91,64.58,0.89
493,maicao,CO,3675657,83,77,-72.24,11.38,81.72,16.44
494,constitucion,CL,3893726,74,71,-72.42,-35.33,49.91,4.92
495,teahupoo,PF,4033543,75,61,-149.27,-17.83,82.4,14.99
496,berlevag,NO,780687,80,88,29.09,70.86,51.17,9.28
497,nador,MA,2541479,75,83,-2.93,35.17,78.8,5.82
498,lata,PT,2738381,67,99,-8.33,40.16,64.99,1.39
499,karoi,ZW,889191,0,76,29.69,-16.81,54.01,8.5
500,talara,PE,3691582,15,86,-81.27,-4.58,61.81,13.06
501,bombay,IN,1275339,75,88,72.85,19.01,82.4,11.41
502,halifax,CA,6324729,100,64,-63.57,44.65,69.01,2.59
503,nchelenge,ZM,175499,8,51,28.73,-9.35,63.95,7.76
504,biltine,TD,244878,100,79,20.92,14.53,77.56,9.55
505,svetlogorsk,BY,10722858,27,95,29.73,52.63,61.45,4.36
506,ponazyrevo,RU,506696,100,88,46.31,58.36,54.91,4.09
507,khrebtovaya,RU,2022232,0,56,104.25,56.7,69.21,8.48
508,bandarbeyla,SO,64814,61,64,50.81,9.49,78.39,33.04
509,andros town,BS,3572906,40,79,-77.77,24.7,84.2,3.36
510,albert lea,US,5016024,1,78,-93.37,43.65,75.2,12.75
511,kashira,RU,551964,4,93,38.17,54.84,53.6,6.06
512,atherton,GB,2656847,7,87,-2.49,53.52,64.99,1.99
513,muleba,TZ,152570,100,80,31.65,-1.84,65.71,2.93
514,pasighat,IN,1260206,100,86,95.33,28.07,80.73,3.53
515,kupang,ID,2057087,20,51,123.58,-10.17,86.0,11.41
516,newport,GB,2641598,0,90,-3.0,51.59,64.99,6.08
517,predivinsk,RU,1494237,100,85,93.44,57.07,65.17,0.98
518,kottagudem,IN,1265938,100,85,80.63,17.55,80.65,6.46
519,parabel,RU,1495586,0,62,81.48,58.7,65.48,3.98
520,lingao,CN,1803560,5,70,109.69,19.91,85.39,2.35
521,lastoursville,GA,2399870,89,63,12.73,-0.81,75.67,4.79
522,sunrise manor,US,5513343,1,5,-115.07,36.21,100.4,12.75
523,quatre cocos,MU,1106643,40,88,57.76,-20.21,64.4,3.36
524,utrera,ES,2510073,100,78,-5.78,37.19,79.0,4.07
525,san juan,AR,3837213,1,45,-68.54,-31.54,50.22,2.3
526,guamuchil,MX,4005297,26,69,-108.1,25.47,87.01,5.99
527,manzhouli,CN,2035836,100,79,117.43,49.6,66.97,3.62
528,dolores,AR,3435038,86,78,-57.68,-36.31,47.59,7.11
529,samoded,RU,499025,100,97,40.51,63.61,55.15,3.49
530,arcachon,FR,6621469,75,94,-1.05,44.59,71.6,9.17
531,bridlington,GB,2654728,60,88,-0.19,54.08,64.4,4.7
532,beyla,GN,2423126,100,97,-8.63,8.68,66.22,4.47
533,hefei,CN,1808722,100,84,117.28,31.86,87.8,4.47
534,chapais,CA,5919850,75,88,-74.85,49.78,62.6,3.36
535,beringovskiy,RU,2126710,100,89,179.32,63.05,49.89,11.72
536,stornoway,GB,2636790,2,100,-6.39,58.21,52.0,6.93
537,dakar,SN,2253354,20,88,-17.44,14.69,77.0,8.05
538,kapoeta,SS,372884,88,87,33.59,4.77,71.4,3.49
539,grand forks,US,5059429,40,83,-97.03,47.93,71.6,8.05
540,ahipara,NZ,2194098,69,78,173.17,-35.17,56.57,19.33
541,mount isa,AU,2065594,0,37,139.5,-20.73,66.2,10.29
542,inta,RU,1505579,100,78,60.17,66.03,53.42,8.86
543,makakilo city,US,5850554,75,52,-158.09,21.35,89.6,9.17
544,yershov,RU,467120,7,86,48.28,51.35,64.08,14.74
545,kuytun,RU,2021093,99,94,101.5,54.34,60.3,12.68
546,alta floresta,BR,6316343,0,48,-56.09,-9.88,72.14,3.58
547,leon,MX,3998655,40,49,-101.67,21.12,73.4,5.82
548,bonthe,SL,2409914,100,88,-12.51,7.53,75.24,9.64
549,cairns,AU,2172797,75,74,145.77,-16.92,81.0,8.05
550,anjiang,CN,1818051,100,61,110.1,27.32,87.24,11.01
551,lobito,AO,3347939,14,86,13.55,-12.35,68.81,6.06
552,cacador,BR,3468570,2,66,-51.02,-26.78,50.83,0.69
553,cedar city,US,5536630,1,7,-113.06,37.68,82.4,12.75
554,kpandae,GH,2299236,100,89,-0.01,8.47,71.17,5.93
555,vrangel,RU,2013258,36,75,133.08,42.73,70.47,10.67
556,zhanaozen,KZ,607610,0,53,52.8,43.3,73.58,9.04
557,gwadar,PK,1177446,100,81,62.33,25.12,82.17,22.86
558,palasa,IN,1260771,100,75,84.42,18.77,84.76,2.62
559,eureka,US,5563397,0,77,-124.16,40.8,64.99,1.01
560,saint-paul,RE,935221,19,72,55.27,-21.01,60.8,6.93
561,tevaitoa,PF,4033375,0,73,-151.5,-16.78,79.48,13.47
562,lakes entrance,AU,2160735,100,91,147.98,-37.88,55.0,8.01
563,ormara,PK,1168700,88,82,64.64,25.21,85.15,14.18
564,palmer,US,4946620,90,64,-72.33,42.16,75.2,6.93
565,maldonado,UY,3441890,90,93,-54.92,-34.67,54.0,3.36
566,dombarovskiy,RU,565407,100,78,59.54,50.76,66.33,9.6
567,la rioja,ES,3336897,31,93,-2.5,42.25,66.2,4.7
